[
  {"name":"HSBC","lat":51.5054,"lng":-0.0190,"beamColor":"#DB0011","initials":"HS","logo":"/logos/hsbc.svg"},
  {"name":"Barclays","lat":51.5049,"lng":-0.0155,"beamColor":"#00AEEF","initials":"BA","logo":"/logos/barclays.svg"},
  {"name":"Lloyds","lat":51.5155,"lng":-0.0933,"beamColor":"#006A4D","initials":"LL","logo":"/logos/lloyds.svg"},
  {"name":"NatWest","lat":51.5201,"lng":-0.0795,"beamColor":"#5B2D8E","initials":"NW","logo":"/logos/natwest.svg"},
  {"name":"Santander","lat":51.5262,"lng":-0.1378,"beamColor":"#EC0000","initials":"SN","logo":"/logos/santander.svg"},
  {"name":"Monzo","lat":51.5215,"lng":-0.0825,"beamColor":"#FF5A5F","initials":"MZ","logo":"/logos/monzo.svg"},
  {"name":"Starling","lat":51.5199,"lng":-0.0860,"beamColor":"#6935D3","initials":"ST","logo":"/logos/Starling.svg"},
  {"name":"TSB","lat":51.5153,"lng":-0.0941,"beamColor":"#003C71","initials":"TSB","logo":"/logos/tsb.svg"},
  {"name":"Metro Bank","lat":51.5184,"lng":-0.1207,"beamColor":"#E4002B","initials":"MB","logo":"/logos/metrobank.svg"},
  {"name":"Goldman Sachs","lat":51.5168,"lng":-0.1038,"beamColor":"#7399C6","initials":"GS","logo":"/logos/GoldmanSachs.svg"}
]
