[
  {
    "name": "HSBC",
    "lat": 51.5054,
    "lng": -0.019,
    "beamColor": "#DB0011",
    "initials": "HS",
    "height": 300,
    "logo": "/logos/hsbc_bank.png"
  },
  {
    "name": "Barclays",
    "lat": 51.5049,
    "lng": -0.0155,
    "beamColor": "#00AEEF",
    "initials": "BA",
    "height": 300,
    "logo": "/logos/barclays_bank.png"
  },
  {
    "name": "Lloyds",
    "lat": 51.5155,
    "lng": -0.0933,
    "beamColor": "#006A4D",
    "initials": "LL",
    "height": 300,
    "logo": "/logos/llyods_bank.png"
  },
  {
    "name": "NatWest",
    "lat": 51.5201,
    "lng": -0.0795,
    "beamColor": "#5B2D8E",
    "initials": "NW",
    "height": 300,
    "logo": "/logos/natwest_bank.png"
  },
  {
    "name": "Santander",
    "lat": 51.5262,
    "lng": -0.1378,
    "beamColor": "#EC0000",
    "initials": "SN",
    "height": 300,
    "logo": "/logos/santander_bank.png"
  },
  {
    "name": "Monzo",
    "lat": 51.5215,
    "lng": -0.0825,
    "beamColor": "#FF5A5F",
    "initials": "MZ",
    "height": 300,
    "logo": "/logos/monzo_bank.png"
  },
  {
    "name": "Starling",
    "lat": 51.5199,
    "lng": -0.086,
    "beamColor": "#6935D3",
    "initials": "SG",
    "height": 300,
    "logo": "/logos/starling_bank.png"
  },
  {
    "name": "TSB",
    "lat": 51.5153,
    "lng": -0.0941,
    "beamColor": "#003C71",
    "initials": "TSB",
    "height": 300,
    "logo": "/logos/tsb_bank.png"
  },
  {
    "name": "Metro Bank",
    "lat": 51.5184,
    "lng": -0.1207,
    "beamColor": "#E4002B",
    "initials": "MB",
    "height": 300,
    "logo": "/logos/metrobank_bank.png"
  },
  {
    "name": "Goldman Sachs",
    "lat": 51.5168,
    "lng": -0.1038,
    "beamColor": "#7399C6",
    "initials": "GS",
    "height": 300,
    "logo": "/logos/goldmansachs_bank.png"
  },
  {
    "name": "J.P. Morgan",
    "lat": 51.50547,
    "lng": -0.01902,
    "beamColor": "#003A70",
    "initials": "JP",
    "height": 300,
    "logo": "/logos/jpmorgan_bank.png"
  }
]
