[{"name":"HSBC","lat":51.5054,"lng":-0.0190,"beamColor":"#DB0011","initials":"HS"},{"name":"Barclays","lat":51.5049,"lng":-0.0155,"beamColor":"#00AEEF","initials":"BA"},{"name":"Lloyds","lat":51.5155,"lng":-0.0933,"beamColor":"#006A4D","initials":"LL"},{"name":"NatWest","lat":51.5201,"lng":-0.0795,"beamColor":"#5B2D8E","initials":"NW"},{"name":"Santander","lat":51.5262,"lng":-0.1378,"beamColor":"#EC0000","initials":"SN"},{"name":"Monzo","lat":51.5215,"lng":-0.0825,"beamColor":"#FF5A5F","initials":"MZ"},{"name":"Starling","lat":51.5199,"lng":-0.0860,"beamColor":"#6935D3","initials":"ST"},{"name":"TSB","lat":51.5153,"lng":-0.0941,"beamColor":"#003C71","initials":"TSB"},{"name":"Metro Bank","lat":51.5184,"lng":-0.1207,"beamColor":"#E4002B","initials":"MB"},{"name":"Goldman Sachs","lat":51.5168,"lng":-0.1038,"beamColor":"#7399C6","initials":"GS"}]
